No    	Event ID	Date	Origin Time	Latitude	Longitude	Depth(km)	xM	MD	ML	Mw	Ms	Mb	Type	Location
000001	20220111010745	2022.01.11	01:07:45.92	35.1167	31.9445	008.4	6.4	0.0	6.4	6.4	0.0	0.0	Ke	AKDENIZ
000002	20211012092404	2021.10.12	09:24:04.80	35.0007	26.3345	016.1	6.3	0.0	6.3	6.2	0.0	0.0	Ke	GIRIT ADASI ACIKLARI (AKDENIZ)
000003	20201030115124	2020.10.30	11:51:24.37	37.8877	26.7057	011.2	6.9	0.0	6.7	6.9	0.0	0.0	Ke	EGE DENIZI
000004	20200223160029	2020.02.23	16:00:29.57	38.4143	44.4925	007.2	6.0	0.0	5.9	6.0	0.0	0.0	Ke	TURKIYE-IRAN SINIR BOLGESI
000005	20200124175510	2020.01.24	17:55:10.61	38.3922	39.0847	005.0	6.7	0.0	6.7	6.5	0.0	0.0	Ke	KALABA-SIVRICE (ELAZIG) [North West  2.5 km]
000006	20170720223109	2017.07.20	22:31:09.66	36.9693	27.4057	007.1	6.6	0.0	6.6	6.6	0.0	0.0	Ke	GOKOVA KORFEZI (AKDENIZ)
000007	20170612122837	2017.06.12	12:28:37.53	38.8468	26.3252	014.4	6.3	0.0	6.3	6.1	0.0	0.0	Ke	EGE DENIZI
000008	20150416180744	2015.04.16	18:07:44.80	35.1613	26.9055	029.4	6.1	0.0	6.1	5.8	0.0	0.0	Ke	GIRIT ADASI (AKDENIZ)
000009	20131228152103	2013.12.28	15:21:03.67	35.9722	31.2710	070.9	6.0	0.0	6.0	5.5	0.0	0.0	Ke	AKDENIZ
000010	20120709135457	2012.07.09	13:54:57.75	35.5785	29.0067	023.4	6.0	0.0	6.0		0.0	0.0	Ke	AKDENiZ
000011	20120610124416	2012.06.10	12:44:16.29	36.4528	28.9160	021.3	6.0	0.0	6.0		0.0	0.0	Ke	ÖLÜDENIZ AÇIKLARI-MUGLA (AKDENIZ)
000012	20111023104121	2011.10.23	10:41:21.01	38.7212	43.4110	005.0	7.2	0.0	6.7	7.2	0.0	0.0	Ke	YEMLICE- (VAN) [North West  1.5 km]
000013	20110401132908	2011.04.01	13:29:08.56	35.5138	26.5798	057.1	6.2	0.0	6.2	6.1	0.0	0.0	Ke	AKDENIZ
000014	20100308023231	2010.03.08	02:32:31.09	38.8300	40.1308	005.0	6.1	0.0	6.0	6.1	0.0	0.0	Ke	ISAAGAMEZRASI-KOVANCILAR (ELAZIG) [South West  0.6 km]
000015	20080715032633	2008.07.15	03:26:33.58	35.7948	27.8798	030.9	6.4	0.0	6.4	6.3	0.0	0.0	Ke	AKDENIZ
000016	20030501002704	2003.05.01	00:27:04.40	39.0100	40.4600	0010	6.4	6.2	0.0	6.4	6.4	0.0	Ke	KURTULUS- (BINGOL) [South West  4.3 km]
000017	20030127052628	2003.01.27	05:26:28.00	39.4800	39.7700	0010	6.1	6.1	0.0	6.1	6.0	5.7	Ke	SAGLAMTAS-PULUMUR (TUNCELI) [North West  4.3 km]
000018	20020203092644	2002.02.03	09:26:44.10	38.6800	30.8200	0005	6.0	5.9	0.0	6.0	0.0	0.0	Ke	COBANLAR (AFYONKARAHISAR) [South East  4.1 km]
000019	20020203071128	2002.02.03	07:11:28.60	38.5800	31.2500	0010	6.1	6.1	0.0	6.0	0.0	0.0	Ke	TASKOPRU-SULTANDAGI (AFYONKARAHISAR) [West 3.4 km]
000020	19991112165720	1999.11.12	16:57:20.80	40.7400	31.2100	0025	7.2	7.2	0.0		0.0	0.0	Ke	UGUR- (DUZCE) [North East  0.3 km]
000021	19990817000137	1999.08.17	00:01:37.60	40.7600	29.9700	0018	7.4	7.4	0.0		0.0	0.0	Ke	BASISKELE (KOCAELI) [North East  2.0 km]
000022	19980627135551	1998.06.27	13:55:51.80	36.9600	35.5200	0018	6.3	6.3	0.0		0.0	0.0	Ke	HASANBEYLI-SARICAM (ADANA) [South 10.1 km]
000023	19951001155713	1995.10.01	15:57:13.10	38.1100	30.0500	0005	6.0	0.0	0.0		6.0	0.0	Ke	BELENPINAR-DINAR (AFYONKARAHISAR) [South 0.6 km]
000024	19921106190809	1992.11.06	19:08:09.20	38.1600	26.9900	0017	6.0	0.0	5.7		6.0	5.7	Ke	ORHANLI-SEFERIHISAR (IZMIR) [East 3.5 km]
000025	19920313171839	1992.03.13	17:18:39.40	39.7200	39.6300	0023	6.8	0.0	0.0		6.8	6.1	Ke	GUNEBAKAN- (ERZINCAN) [South West  1.7 km]
000026	19881207074124	1988.12.07	07:41:24.30	40.9600	44.1600	0005	6.7	0.0	0.0		6.7	6.0	Ke	AZERBAYCAN
000027	19831030041228	1983.10.30	04:12:28.10	40.3500	42.1800	0016	6.8	0.0	0.0		6.8	6.0	Ke	PARMAKDERE-SARIKAMIS (KARS) [North West  4.2 km]
000028	19780713123843	1978.07.13	12:38:43.00	39.1000	29.9000	0010	6.0	2.6	0.0		0.0	0.0	Ke	YAGCILAR-ASLANAPA (KÜTAHYA) [South East  4.7 km]
000029	19780708092450	1978.07.08	09:24:50.90	39.6800	29.4200	0000	6.0	2.6	0.0		0.0	0.0	Ke	BOZBELEN-TAVSANLI (KÜTAHYA) [South East  0.9 km]
000030	19761124122216	1976.11.24	12:22:16.00	39.0500	44.0400	0010	7.5	0.0	0.0		7.5	6.1	Ke	YENIYAKA-CALDIRAN (VAN) [South East  1.9 km]
000031	19750906092012	1975.09.06	09:20:12.00	38.5100	40.7700	0032	6.6	0.0	0.0		6.6	0.0	Ke	UCDAMLAR-LICE (DIYARBAKIR) [West 1.6 km]
000032	19750327051507	1975.03.27	05:15:07.90	40.4500	26.1200	0015	6.7	0.0	5.7		6.7	5.5	Ke	SAROS KÖRFEZI (EGE DENIZI)
000033	19710525054326	1971.05.25	05:43:26.10	39.0500	29.7100	016.0	6.0	5.8	5.7	6.0	5.9	5.7	Ke	TOKUL-ASLANAPA (KÜTAHYA) [West 5.2 km]
000034	19710522164359	1971.05.22	16:43:59.30	38.8500	40.5200	003.0	6.8	6.7	0.0	6.1	6.8	5.9	Ke	GUVECLI- (BINGOL) [North West  0.7 km]
000035	19700328210223	1970.03.28	21:02:23.50	39.2100	29.5100	018.0	7.0	0.0	7.0	6.2	7.0	6.0	Ke	KIZIK-CAVDARHISAR (KÜTAHYA) [North 0.8 km]
000036	19690328014829	1969.03.28	01:48:29.50	38.5500	28.4600	004.0	6.6	0.0	6.6	6.1	6.5	5.9	Ke	SOGANLI-ALASEHIR (MANISA) [North East  3.0 km]
000037	19690325132134	1969.03.25	13:21:34.20	39.2500	28.4400	037.0	6.1	5.8	5.7	5.8	6.1	5.5	Ke	DUVERTEPE-SINDIRGI (BALIKESIR) [North East  1.9 km]
000038	19690114231206	1969.01.14	23:12:06.20	36.1100	29.1900	022.0	6.0	5.8	6.0	5.9	6.0	5.6	Ke	KALKAN AÇIKLARI-ANTALYA (AKDENIZ)
000039	19681205075211	1968.12.05	07:52:11.10	36.6000	26.9200	031.0	6.1	0.0	6.1	5.7	5.7	5.4	Ke	ONIKI ADALAR (AKDENIZ)
000040	19680903081952	1968.09.03	08:19:52.60	41.8100	32.3900	005.0	6.5	6.1	6.1	6.0	6.5	5.7	Ke	AMASRA (BARTIN) [North 7.0 km]
000041	19670722165658	1967.07.22	16:56:58.00	40.6700	30.6900	033.0	6.8	6.4	6.3	6.2	6.8	6.0	Ke	GUZLEK-AKYAZI (SAKARYA) [North 1.5 km]
000042	19660820115909	1966.08.20	11:59:09.00	39.4200	40.9800	014.0	6.0	5.8	5.7	5.6	6.0	5.3	Ke	KASIKCI-KARLIOVA (BINGOL) [North West  2.3 km]
000043	19660819122210	1966.08.19	12:22:10.50	39.1700	41.5600	026.0	6.5	6.1	6.1	6.0	6.5	5.8	Ke	CAYIRYOLU-VARTO (MUS) [South West  1.2 km]
000044	19641006143123	1964.10.06	14:31:23.00	40.3000	28.2300	034.0	7.0	0.0	7.0	6.2	7.0	6.0	Ke	OKCULAR-KARACABEY (BURSA) [North East  1.5 km]
000045	19640614121531	1964.06.14	12:15:31.40	38.1300	38.5100	003.0	6.0	5.8	5.7	5.8	6.0	5.5	Ke	AKSU-SINCIK (ADIYAMAN) [South 1.6 km]
000046	19630918165814	1963.09.18	16:58:14.80	40.7700	29.1200	040.0	6.3	6.0	6.0	6.2	6.3	5.9	Ke	ADALAR (ISTANBUL) [South 11.7 km]
000047	19610523024522	1961.05.23	02:45:22.30	36.7000	28.4900	070.0	6.3	6.0	6.0	6.2	6.3	5.9	Ke	DALYAN AÇIKLARI-MUGLA (AKDENIZ)
000048	19570526063335	1957.05.26	06:33:35.10	40.6700	31.0000	010.0	7.1	6.6	6.6	6.7	7.1	6.5	Ke	GUZELDERE-GOLYAKA (DUZCE) [South West  7.1 km]
000049	19570425022545	1957.04.25	02:25:45.10	36.4200	28.6800	080.0	7.1	6.6	6.6	6.7	7.1	6.5	Ke	AKDENIZ
000050	19570424191017	1957.04.24	19:10:17.10	36.4300	28.6300	080.0	6.8	6.4	6.3	6.5	6.8	6.3	Ke	AKDENIZ
000051	19560220203143	1956.02.20	20:31:43.80	39.8900	30.4900	040.0	6.4	6.1	6.0	6.2	6.4	6.0	Ke	SULUKARAAGAC-TEPEBASI (ESKISEHIR) [South East  2.6 km]
000052	19550716070717	1955.07.16	07:07:17.00	37.6500	27.2600	040.0	6.8	6.4	6.3	6.5	6.8	6.3	Ke	YUVACA-SOKE (AYDIN) [South East  0.3 km]
000053	19530907035904	1953.09.07	03:59:04.10	41.0900	33.0100	040.0	6.0	5.8	5.7	6.0	6.0	5.7	Ke	SOGANLI-OVACIK (KARABÜK) [South West  1.9 km]
000054	19530318190616	1953.03.18	19:06:16.10	39.9900	27.3600	010.0	7.2	6.7	6.7	6.8	7.2	6.6	Ke	SOGUCAK-YENICE (ÇANAKKALE) [South West  2.3 km]
000055	19510813183333	1951.08.13	18:33:33.60	40.8800	32.8700	010.0	6.9	6.5	6.4	6.6	6.9	6.4	Ke	KUZOREN-CERKES (ÇANKIRI) [South East  2.8 km]
000056	19490817184419	1949.08.17	18:44:19.80	39.5700	40.6200	040.0	6.7	6.3	6.3	6.5	6.7	6.2	Ke	YAYLIM-TERCAN (ERZINCAN) [North West  2.7 km]
000057	19490723150333	1949.07.23	15:03:33.20	38.5700	26.2900	010.0	6.6	6.2	6.2	6.4	6.6	6.1	Ke	KÜÇÜKBAHÇE AÇIKLARI-IZMIR (EGE DENIZI)
000058	19480209125818	1948.02.09	12:58:18.60	35.4100	27.2000	030.0	7.2	6.7	6.7	6.8	7.2	6.6	Ke	AKDENIZ
000059	19450320075856	1945.03.20	07:58:56.50	37.1100	35.7000	060.0	6.0	5.8	5.7	6.0	6.0	5.7	Ke	TATLIKUYU-CEYHAN (ADANA) [South West  1.5 km]
000060	19441006023448	1944.10.06	02:34:48.70	39.4800	26.5600	040.0	6.8	6.4	6.3	6.5	6.8	6.3	Ke	EDREMIT KÖRFEZI (EGE DENIZI)
000061	19440625041625	1944.06.25	04:16:25.60	38.7900	29.3100	040.0	6.0	5.8	5.7	6.0	6.0	5.7	Ke	GOKCEDAL- (USAK) [South West  1.0 km]
000062	19440201032239	1944.02.01	03:22:39.90	40.7871	31.8723	010.0	7.2	6.7	6.7	6.8	7.2	6.6	Ke	ULUMESCIT-(BOLU)
000063	19431126222040	1943.11.26	22:20:40.80	41.0500	33.7200	010.0	7.2	6.7	6.7	6.8	7.2	6.6	Ke	COMERT-ILGAZ (ÇANKIRI) [North West  2.2 km]
000064	19430627100503	1943.06.27	10:05:03.70	35.0000	26.0000	130.0	6.1	6.1	0.0		0.0	0.0	Ke	AKDENIZ
000065	19430620153254	1943.06.20	15:32:54.00	40.8500	30.5100	010.0	6.6	6.2	6.2	6.4	6.6	6.1	Ke	TURKBEYLIKKISLA-SOGUTLU (SAKARYA) [South East  0.9 km]
000066	19421220140307	1942.12.20	14:03:07.80	40.8700	36.4700	010.0	7.0	6.5	6.5	6.7	7.0	6.4	Ke	ERDEMLI-ERBAA (TOKAT) [North West  2.8 km]
000067	19421115170122	1942.11.15	17:01:22.90	39.5500	28.5800	010.0	6.1	5.8	5.8	6.0	6.1	5.8	Ke	CATALCAM-DURSUNBEY (BALIKESIR) [North East  1.5 km]
000068	19421028022253	1942.10.28	02:22:53.10	39.1000	27.8000	050.0	6.0	5.8	5.7	6.0	6.0	5.7	Ke	KARAKURT-KIRKAGAC (MANISA) [South West  1.7 km]
000069	19411213061605	1941.12.13	06:16:05.30	37.1300	28.0600	030.0	6.5	6.1	6.1	6.3	6.5	6.1	Ke	DAGPINAR- (MUGLA) [North 4.1 km]
000070	19411108000001	1941.11.08	00:00:01.00	39.7400	39.5000	005.0	6.0	6.0	0.0		0.0	0.0	Ke	ERZINCAN [North East  0.9 km]
000071	19410523195158	1941.05.23	19:51:58.50	37.0700	28.2100	040.0	6.0	5.8	5.7	6.0	6.0	5.7	Ke	KIRAN- (MUGLA) [North East  1.1 km]
000072	19410120033707	1941.01.20	03:37:07.00	35.0000	34.0000	100.0	6.5	6.1	6.1	6.3	6.5	6.1	Ke	KIBRIS-GAZIMAGUSA
000073	19400730001214	1940.07.30	00:12:14.60	39.6400	35.2500	050.0	6.2	5.9	5.9	6.1	6.2	5.9	Ke	MANSUROGLU-SORGUN (YOZGAT) [North West  1.4 km]
000074	19391226235720	1939.12.26	23:57:20.90	39.8000	39.5100	020.0	7.9	7.2	7.2	7.7	7.9	7.1	Ke	KURUTILEK- (ERZINCAN) [North East  3.0 km]
000075	19390922003636	1939.09.22	00:36:36.60	39.0700	26.9400	010.0	6.6	6.2	6.2	6.4	6.6	6.1	Ke	KIZILCUKUR-DIKILI (IZMIR) [South East  4.2 km]
000076	19380419105920	1938.04.19	10:59:20.40	39.4400	33.7900	010.0	6.6	6.2	6.2	6.4	6.6	6.1	Ke	YUKARICIFTLIKKOYU-KAMAN (KIRSEHIR) [East 2.9 km]
000077	19350501102446	1935.05.01	10:24:46.30	40.0900	43.2200	060.0	6.2	5.9	5.9	6.1	6.2	5.9	Ke	DIBEKKAYA-KAGIZMAN (KARS) [North West  3.1 km]
000078	19350318084047	1935.03.18	08:40:47.20	36.0800	27.3000	083.0	6.1	5.8	5.8	6.0	6.1	5.8	Ke	AKDENIZ
000079	19350104162004	1935.01.04	16:20:04.60	40.3000	27.4500	020.0	6.3	6.0	6.0	6.2	6.3	5.9	Ke	GUVEMALANI-BIGA (ÇANAKKALE) [North West  2.3 km]
000080	19350104144130	1935.01.04	14:41:30.40	40.4000	27.4900	030.0	6.4	6.1	6.0	6.2	6.4	6.0	Ke	ERDEK KÖRFEZI (MARMARA DENIZI)
000081	19330423055737	1933.04.23	05:57:37.20	36.7700	27.2900	030.0	6.4	6.1	6.0	6.2	6.4	6.0	Ke	ONIKI ADALAR (AKDENIZ)
000082	19300506223431	1930.05.06	22:34:31.70	37.9800	44.4800	070.0	7.6	7.0	7.0	7.1	7.6	6.9	Ke	TÜRKIYE-IRAN SINIR BÖLGESI
000083	19290518063754	1929.05.18	06:37:54.30	40.2000	37.9000	010.0	6.1	5.8	5.8	6.0	6.1	5.8	Ke	GUNISIK-KOYULHISAR (SIVAS) [North East  1.2 km]
000084	19280502215432	1928.05.02	21:54:32.20	39.6400	29.1400	010.0	6.1	5.8	5.8	6.0	6.1	5.8	Ke	ISHAKLAR-HARMANCIK (BURSA) [North 1.3 km]
000085	19280331002948	1928.03.31	00:29:48.90	38.1800	27.8000	010.0	6.5	6.1	6.1	6.3	6.5	6.1	Ke	DEREBASI-TIRE (IZMIR) [East 1.5 km]
000086	19270605022405	1927.06.05	02:24:05.80	36.0000	31.0000	005.0	6.2	6.2	0.0		0.0	0.0	Ke	AKDENIZ
000087	19261022195937	1926.10.22	19:59:37.00	40.9400	43.8800	010.0	6.0	5.8	5.7	6.0	6.0	5.7	Ke	SUNGUDERESI-AKYAKA (KARS) [North East  19.1 km]
000088	19260626194638	1926.06.26	19:46:38.80	36.5400	27.3300	100.0	7.7	7.1	7.0	7.2	7.7	6.9	Ke	ONIKI ADALAR (AKDENIZ)
000089	19260318140614	1926.03.18	14:06:14.60	35.8400	29.5000	010.0	6.8	6.4	6.3	6.5	6.8	6.3	Ke	AKDENIZ
000090	19260318140614	1926.03.18	14:06:14.00	35.9900	30.1300	010.0	6.8	6.8	0.0		0.0	0.0	Ke	AKDENIZ
000091	19260316175301	1926.03.16	17:53:01.00	37.5000	29.0000	015.0	6.3	6.3	0.0		0.0	0.0	Ke	MEDET-TAVAS (DENIZLI) [South West  1.7 km]
000092	19260301200200	1926.03.01	20:02:00.40	37.0300	29.4300	050.0	6.1	5.8	5.8	6.0	6.1	5.8	Ke	AYVACIK-CAMELI (DENIZLI) [South East  3.3 km]
000093	19250109173834	1925.01.09	17:38:34.30	41.3300	43.4100	060.0	6.0	5.8	5.7	6.0	6.0	5.7	Ke	AKCIL-CILDIR (ARDAHAN) [East 20.4 km]
000094	19240913143414	1924.09.13	14:34:14.70	39.9600	41.9400	010.0	6.8	6.4	6.3	6.5	6.8	6.3	Ke	EMRE-KOPRUKOY (ERZURUM) [South West  1.9 km]
000095	19220813000954	1922.08.13	00:09:54.50	35.5100	27.9800	010.0	6.9	6.5	6.4	6.6	6.9	6.4	Ke	AKDENIZ
000096	19220811081941	1922.08.11	08:19:41.00	35.3600	27.7000	010.0	6.5	6.1	6.1	6.3	6.5	6.1	Ke	AKDENIZ
000097	19191118215450	1919.11.18	21:54:50.30	39.2600	26.7100	010.0	7.0	6.5	6.5	6.7	7.0	6.4	Ke	KUCUKKOY-AYVALIK (BALIKESIR) [South East  3.6 km]
000098	19180929120705	1918.09.29	12:07:05.00	35.2000	34.7000	030.0	6.5	6.1	6.1	6.3	6.5	6.1	Ke	AKDENIZ
000099	19180716200344	1918.07.16	20:03:44.50	36.0800	26.9900	070.0	6.1	5.8	5.8	6.0	6.1	5.8	Ke	AKDENIZ
000100	19160124065515	1916.01.24	06:55:15.80	40.2700	36.8300	010.0	7.1	6.6	6.6	6.7	7.1	6.5	Ke	TEKNECIK-ALMUS (TOKAT) [South West  0.6 km]
000101	19141003220702	1914.10.03	22:07:02.40	37.7000	30.4000	014.0	6.9	6.5	6.4	6.6	6.9	6.4	Ke	HALICILAR- (BURDUR) [South 0.7 km]
000102	19130420031347	1913.04.20	03:13:47.90	41.9100	44.3200	010.0	6.1	5.8	5.8	6.0	6.1	5.8	Ke	GÜRCISTAN
000103	19120810092300	1912.08.10	09:23:00.00	40.6000	27.1000	015.0	6.3	6.0	6.0	6.2	6.3	5.9	Ke	SARKOY (TEKIRDAG) [South West  2.0 km]
000104	19120809012900	1912.08.09	01:29:00.00	40.6000	27.2000	016.0	7.3	6.8	6.7	6.9	7.3	6.6	Ke	ERIKLICE-SARKOY (TEKIRDAG) [South East  4.3 km]
000105	19110430204203	1911.04.30	20:42:03.00	36.0000	30.0000	180.0	6.1	5.8	5.8	6.0	6.1	5.8	Ke	KALE AÇIKLARI-ANTALYA (AKDENIZ)
000106	19100625192601	1910.06.25	19:26:01.00	41.0000	34.0000	005.0	6.2	6.2	0.0		0.0	0.0	Ke	ERMELIK-TOSYA (KASTAMONU) [South East  2.3 km]
000107	19090209112400	1909.02.09	11:24:00.00	40.0000	38.0000	060.0	6.3	6.0	6.0	6.2	6.3	5.9	Ke	SARKOY-SUSEHRI (SIVAS) [South East  2.0 km]
000108	19090119045700	1909.01.19	04:57:00.00	38.0000	26.5000	060.0	6.0	5.8	5.7	6.0	6.0	5.7	Ke	EGE DENIZI
000109	19080928062800	1908.09.28	06:28:00.00	38.0000	44.0000	030.0	6.0	5.8	5.7	6.0	6.0	5.7	Ke	BARIS-BASKALE (VAN) [South East  2.7 km]
000110	19080217030001	1908.02.17	03:00:01.00	37.4000	35.8000	005.0	6.0	6.0	0.0		0.0	0.0	Ke	ISIKLI-KOZAN (ADANA) [East 0.4 km]
000111	19071201000001	1907.12.01	00:00:01.00	37.6000	34.5000	005.0	6.3	6.3	0.0		0.0	0.0	Ke	GUNEY-ULUKISLA (NIGDE) [South 3.8 km]
000112	19061228000000	1906.12.28	00:00:00.00	40.5000	42.0000	030.0	6.0	5.8	5.7	6.0	6.0	5.7	Ke	TOPRAKKALE-OLTU (ERZURUM) [North 3.5 km]
000113	19060928055000	1906.09.28	05:50:00.00	40.5000	42.7000	030.0	6.2	5.9	5.9	6.1	6.2	5.9	Ke	KAMISLI-SELIM (KARS) [South East  1.3 km]
000114	19051204070400	1905.12.04	07:04:00.00	39.0000	39.0000	030.0	6.8	6.4	6.3	6.5	6.8	6.3	Ke	PAYAMDUZU-CEMISGEZEK (TUNCELI) [North East  2.8 km]
000115	19040818200700	1904.08.18	20:07:00.00	38.0000	27.0000	030.0	6.0	5.8	5.7	6.0	6.0	5.7	Ke	KUSADASI KÖRFEZI (EGE DENIZI)
000116	19040811060800	1904.08.11	06:08:00.00	37.7000	26.9000	006.0	6.2	5.9	5.9	6.1	6.2	5.9	Ke	SISAM ADASI (EGE DENIZI)
000117	19030428234600	1903.04.28	23:46:00.00	39.1000	42.5000	030.0	6.3	6.0	6.0	6.2	6.3	5.9	Ke	HASRETPINAR-MALAZGIRT (MUS) [East 4.3 km]
